{"type":"FeatureCollection","features":[{"type": "Feature", "geometry": {"type": "Point", "coordinates": [2.212396528770103, 48.82346513596046]}, "properties": {"num_loc": "10", "commune": "SEVRES", "type_zone": "Tarification parking", "gestionnaire": "Q-Park", "type_gestion": "Payant sous barri\u00e8re", "geo_point_2d": [48.823465136, 2.21239652877], "nb_pl_total": 369, "localisation": "RUE LECOINTRE", "type_parking": "Ouvrage", "code_insee": "92072", "nom_parking": "Parking Th\u00e9\u00e2tre - Europe", "id_parking": "PARK005"}},{"type": "Feature", "geometry": {"type": "Point", "coordinates": [2.192154692151686, 48.81254588338158]}, "properties": {"num_loc": "965", "commune": "CHAVILLE", "type_zone": "Tarification parking", "gestionnaire": "Seine Ouest Am\u00e9nagement", "type_gestion": "Payant sous barri\u00e8re", "geo_point_2d": [48.8125458834, 2.19215469215], "nb_pl_total": 131, "localisation": "AVENUE ROGER SALENGRO", "type_parking": "Ouvrage", "code_insee": "92022", "nom_parking": "Parking de l'Atrium", "id_parking": "PARK007"}},{"type": "Feature", "geometry": {"type": "Point", "coordinates": [2.206114694432082, 48.82173262239249]}, "properties": {"nom_parking": "Parking Gallardon", "commune": "SEVRES", "type_zone": "Tarification parking", "gestionnaire": "Q-Park", "type_gestion": "Payant sous barri\u00e8re", "geo_point_2d": [48.8217326224, 2.20611469443], "nb_pl_total": 58, "localisation": "PLACE GABRIEL PERI", "type_parking": "Ouvrage", "code_insee": "92072", "id_parking": "PARK011"}},{"type": "Feature", "geometry": {"type": "Point", "coordinates": [2.277431183883996, 48.82659359715971]}, "properties": {"num_loc": "19", "commune": "ISSY-LES-MOULINEAUX", "type_zone": "Tarification parking", "gestionnaire": "Indigo", "type_gestion": "Payant sous barri\u00e8re", "geo_point_2d": [48.8265935972, 2.27743118388], "nb_pl_total": 187, "localisation": "RUE VAUDETARD", "type_parking": "Ouvrage", "code_insee": "92040", "nom_parking": "Parking Corentin Celton", "id_parking": "PARK012"}},{"type": "Feature", "geometry": {"type": "Point", "coordinates": [2.157497958753377, 48.8150706493098]}, "properties": {"nom_parking": "Parking Fausses-Reposes", "localisation": "ROUTE DE VERSAILLES", "commune": "VILLE D'AVRAY", "type_gestion": "Gratuit", "geo_point_2d": [48.8150706493, 2.15749795875], "gestionnaire": "Autre personne publique", "type_parking": "Surface", "code_insee": "92077", "id_parking": "PARK015"}},{"type": "Feature", "geometry": {"type": "Point", "coordinates": [2.200939038054316, 48.826032967581455]}, "properties": {"nom_parking": "Brancas", "commune": "SEVRES", "comp_loc": "Angle rue de Ville d'Avray", "type_zone": "Zone longue dur\u00e9e", "gestionnaire": "Q-Park", "type_gestion": "Payant par horodateur", "geo_point_2d": [48.8260329676, 2.20093903805], "nb_pl_total": 16, "localisation": "RUE BRANCAS", "type_parking": "Surface", "code_insee": "92072", "id_parking": "PARK024"}},{"type": "Feature", "geometry": {"type": "Point", "coordinates": [2.232676286350382, 48.82641757834741]}, "properties": {"nom_parking": "Parking Cours de l'\u00cele Seguin", "commune": "BOULOGNE-BILLANCOURT", "type_zone": "Tarification parking", "gestionnaire": "Indigo", "type_gestion": "Payant sous barri\u00e8re", "geo_point_2d": [48.8264175783, 2.23267628635], "nb_pl_total": 602, "localisation": "COURS DE L'ILE SEGUIN", "type_parking": "Ouvrage", "code_insee": "92012", "id_parking": "PARK029"}},{"type": "Feature", "geometry": {"type": "Point", "coordinates": [2.191035844642224, 48.826126116649796]}, "properties": {"num_loc": "12", "commune": "VILLE D'AVRAY", "localisation": "RUE DE SEVRES", "type_gestion": "Payant par horodateur", "geo_point_2d": [48.8261261166, 2.19103584464], "nb_pl_total": 31, "gestionnaire": "Indigo", "type_parking": "Surface", "code_insee": "92077", "nom_parking": "Malglaive", "id_parking": "PARK031"}},{"type": "Feature", "geometry": {"type": "Point", "coordinates": [2.241529540899243, 48.831547246982915]}, "properties": {"num_loc": "150", "commune": "BOULOGNE-BILLANCOURT", "type_zone": "Tarification parking", "gestionnaire": "Indigo", "type_gestion": "Payant sous barri\u00e8re", "geo_point_2d": [48.831547247, 2.2415295409], "nb_pl_total": 210, "localisation": "RUE DU VIEUX PONT DE SEVRES", "type_parking": "Ouvrage", "code_insee": "92012", "nom_parking": "Parking March\u00e9", "id_parking": "PARK035"}},{"type": "Feature", "geometry": {"type": "Point", "coordinates": [2.287908990979024, 48.82095798416975]}, "properties": {"nom_parking": "Parking Jacques Cabourg", "commune": "VANVES", "type_zone": "Tarification parking", "gestionnaire": "Seine Ouest Am\u00e9nagement", "type_gestion": "Payant sous barri\u00e8re", "geo_point_2d": [48.8209579842, 2.28790899098], "nb_pl_total": 75, "localisation": "RUE JACQUES CABOURG", "type_parking": "Ouvrage", "code_insee": "92075", "id_parking": "PARK046"}},{"type": "Feature", "geometry": {"type": "Point", "coordinates": [2.2248700613173202, 48.82918614864559]}, "properties": {"nom_parking": "Parking de l'\u00cele Monsieur Sud", "commune": "SEVRES", "type_zone": "Tarification parking", "gestionnaire": "Q-Park", "type_gestion": "Payant sous barri\u00e8re", "geo_point_2d": [48.8291861486, 2.22487006132], "nb_pl_total": 208, "localisation": "ROUTE DE SAINT CLOUD", "type_parking": "Surface", "code_insee": "92072", "id_parking": "PARK047"}},{"type": "Feature", "geometry": {"type": "Point", "coordinates": [2.188755934432323, 48.827565234072836]}, "properties": {"num_loc": "6", "commune": "VILLE D'AVRAY", "type_zone": "Tarification parking", "gestionnaire": "Indigo", "type_gestion": "Payant sous barri\u00e8re", "geo_point_2d": [48.8275652341, 2.18875593443], "nb_pl_total": 69, "localisation": "RUE DE SAINT CLOUD", "type_parking": "Ouvrage", "code_insee": "92077", "nom_parking": "Fontaine du Roy", "id_parking": "PARK037"}},{"type": "Feature", "geometry": {"type": "Point", "coordinates": [2.222690729180623, 48.83464578374419]}, "properties": {"nom_parking": "Parking de l'\u00cele Monsieur Nord", "commune": "SEVRES", "type_zone": "Tarification parking", "gestionnaire": "Q-Park", "type_gestion": "Payant sous barri\u00e8re", "geo_point_2d": [48.8346457837, 2.22269072918], "nb_pl_total": 69, "localisation": "ROUTE DE SAINT CLOUD", "type_parking": "Surface", "code_insee": "92072", "id_parking": "PARK002"}},{"type": "Feature", "geometry": {"type": "Point", "coordinates": [2.262723971342102, 48.829517790701836]}, "properties": {"num_loc": "7", "commune": "ISSY-LES-MOULINEAUX", "type_zone": "Tarification parking", "gestionnaire": "Q-Park", "type_gestion": "Payant sous barri\u00e8re", "geo_point_2d": [48.8295177907, 2.26272397134], "nb_pl_total": 290, "localisation": "RUE ROUGET DE L'ISLE", "type_parking": "Ouvrage", "code_insee": "92040", "nom_parking": "Parking Issy-Val de Seine", "id_parking": "PARK004"}},{"type": "Feature", "geometry": {"type": "Point", "coordinates": [2.274076239864497, 48.8247825705239]}, "properties": {"num_loc": "60", "commune": "ISSY-LES-MOULINEAUX", "type_zone": "Tarification parking", "gestionnaire": "Indigo", "type_gestion": "Payant sous barri\u00e8re", "geo_point_2d": [48.8247825705, 2.27407623986], "nb_pl_total": 270, "localisation": "RUE DU GENERAL LECLERC", "type_parking": "Ouvrage", "code_insee": "92040", "nom_parking": "Parking H\u00f4tel de Ville", "id_parking": "PARK013"}},{"type": "Feature", "geometry": {"type": "Point", "coordinates": [2.223587227810733, 48.829401690887536]}, "properties": {"num_loc": "2", "commune": "SEVRES", "type_zone": "Tarification parking", "gestionnaire": "Q-Park", "type_gestion": "Payant sous barri\u00e8re", "geo_point_2d": [48.8294016909, 2.22358722781], "nb_pl_total": 58, "localisation": "PLACE DE LA MANUFACTURE NATIONALE", "type_parking": "Surface", "code_insee": "92072", "nom_parking": "Parking Manufacture", "id_parking": "PARK023"}},{"type": "Feature", "geometry": {"type": "Point", "coordinates": [2.243118050744991, 48.83742371630228]}, "properties": {"num_loc": "30", "commune": "BOULOGNE-BILLANCOURT", "type_zone": "Tarification parking", "gestionnaire": "Indigo", "type_gestion": "Payant sous barri\u00e8re", "geo_point_2d": [48.8374237163, 2.24311805074], "nb_pl_total": 287, "localisation": "RUE DE LA BELLE FEUILLE", "type_parking": "Ouvrage", "code_insee": "92012", "nom_parking": "Parking Belle Feuille", "id_parking": "PARK028"}},{"type": "Feature", "geometry": {"type": "Point", "coordinates": [2.235384350504792, 48.80797084593951]}, "properties": {"nom_parking": "Terre Neuve", "commune": "MEUDON", "type_zone": "Zone courte dur\u00e9e", "gestionnaire": "Indigo", "type_gestion": "Payant par horodateur", "geo_point_2d": [48.8079708459, 2.2353843505], "nb_pl_total": 33, "localisation": "RUE TERRE NEUVE", "type_parking": "Surface", "code_insee": "92048", "id_parking": "PARK033"}},{"type": "Feature", "geometry": {"type": "Point", "coordinates": [2.188953026008689, 48.82716576290619]}, "properties": {"nom_parking": "Maningue", "commune": "VILLE D'AVRAY", "comp_loc": "Angle rue de S\u00e8vres", "type_zone": "Zone courte dur\u00e9e", "gestionnaire": "Indigo", "type_gestion": "Payant par horodateur", "geo_point_2d": [48.8271657629, 2.18895302601], "nb_pl_total": 15, "localisation": "RUE DE SAINT CLOUD", "type_parking": "Surface", "code_insee": "92077", "id_parking": "PARK038"}},{"type": "Feature", "geometry": {"type": "Point", "coordinates": [2.209639066903766, 48.823564894491184]}, "properties": {"nom_parking": "March\u00e9", "commune": "SEVRES", "comp_loc": "March\u00e9 Saint-Romain", "type_zone": "Tarification parking", "gestionnaire": "Q-Park", "rep_loc": "TER", "num_loc": "2", "type_gestion": "Payant par horodateur", "geo_point_2d": [48.8235648945, 2.2096390669], "nb_pl_total": 37, "localisation": "AVENUE DE L'EUROPE", "type_parking": "Ouvrage", "code_insee": "92072", "id_parking": "PARK041"}},{"type": "Feature", "geometry": {"type": "Point", "coordinates": [2.231905367315944, 48.821992777262125]}, "properties": {"nom_parking": "Brimborion", "commune": "MEUDON", "comp_loc": "Angle rue Troyon", "type_zone": "Zone moyenne dur\u00e9e", "gestionnaire": "Indigo", "type_gestion": "Payant par horodateur", "geo_point_2d": [48.8219927773, 2.23190536732], "nb_pl_total": 40, "localisation": "RUE HENRI SAVIGNAC", "type_parking": "Surface", "code_insee": "92048", "id_parking": "PARK044"}},{"type": "Feature", "geometry": {"type": "Point", "coordinates": [2.287778795158009, 48.821628466447685]}, "properties": {"nom_parking": "Parking Saint-R\u00e9my - R\u00e9publique", "num_loc": "23", "comp_loc": "March\u00e9 de Vanves", "type_zone": "Tarification parking", "commune": "VANVES", "gestionnaire": "Seine Ouest Am\u00e9nagement", "type_gestion": "Payant sous barri\u00e8re", "geo_point_2d": [48.8216284664, 2.28777879516], "nb_pl_total": 90, "localisation": "RUE ANTOINE FRATACCI", "type_parking": "Ouvrage", "code_insee": "92075", "id_parking": "PARK045"}},{"type": "Feature", "geometry": {"type": "Point", "coordinates": [2.236102600407529, 48.81359417534187]}, "properties": {"num_loc": "15", "commune": "MEUDON", "type_zone": "Zone moyenne dur\u00e9e", "gestionnaire": "Indigo", "type_gestion": "Payant par horodateur", "geo_point_2d": [48.8135941753, 2.23610260041], "nb_pl_total": 25, "localisation": "BOULEVARD DES NATIONS UNIES", "type_parking": "Surface", "code_insee": "92048", "nom_parking": "Centre d'Art et de Culture", "id_parking": "PARK049"}},{"type": "Feature", "geometry": {"type": "Point", "coordinates": [2.189081061945388, 48.82638052693276]}, "properties": {"nom_parking": "De Gaulle", "commune": "VILLE D'AVRAY", "type_zone": "Zone courte dur\u00e9e", "gestionnaire": "Indigo", "type_gestion": "Payant par horodateur", "geo_point_2d": [48.8263805269, 2.18908106195], "nb_pl_total": 82, "localisation": "PLACE CHARLES DE GAULLE", "type_parking": "Surface", "code_insee": "92077", "id_parking": "PARK003"}},{"type": "Feature", "geometry": {"type": "Point", "coordinates": [2.238003623618236, 48.83686773170749]}, "properties": {"nom_parking": "Parking Les Passages", "num_loc": "161", "comp_loc": "Rue le Corbusier", "type_zone": "Tarification parking", "commune": "BOULOGNE-BILLANCOURT", "gestionnaire": "Autre personne priv\u00e9e", "type_gestion": "Payant sous barri\u00e8re", "geo_point_2d": [48.8368677317, 2.23800362362], "nb_pl_total": 600, "localisation": "RUE D'AGUESSEAU", "type_parking": "Ouvrage", "code_insee": "92012", "id_parking": "PARK027"}},{"type": "Feature", "geometry": {"type": "Point", "coordinates": [2.2385727986094572, 48.819928628060936]}, "properties": {"num_loc": "5", "commune": "MEUDON", "type_zone": "Tarification parking", "gestionnaire": "Seine Ouest Am\u00e9nagement", "type_gestion": "Payant sous barri\u00e8re", "geo_point_2d": [48.8199286281, 2.23857279861], "nb_pl_total": 60, "localisation": "RUE DU MARTIN PECHEUR", "type_parking": "Ouvrage", "code_insee": "92048", "nom_parking": "Parking Avant Seine"}},{"type": "Feature", "geometry": {"type": "Point", "coordinates": [2.227869367391844, 48.837644355815115]}, "properties": {"num_loc": "26", "commune": "BOULOGNE-BILLANCOURT", "type_zone": "Tarification parking", "gestionnaire": "Seine Ouest Am\u00e9nagement", "type_gestion": "Payant sous barri\u00e8re", "geo_point_2d": [48.8376443558, 2.22786936739], "nb_pl_total": 225, "localisation": "RUE DE SEVRES", "type_parking": "Ouvrage", "code_insee": "92012", "nom_parking": "Parking Rue de S\u00e8vres"}},{"type": "Feature", "geometry": {"type": "Point", "coordinates": [2.188806326917839, 48.809205813658686]}, "properties": {"num_loc": "1471", "commune": "CHAVILLE", "type_zone": "Tarification parking", "gestionnaire": "Seine Ouest Am\u00e9nagement", "type_gestion": "Payant sous barri\u00e8re", "geo_point_2d": [48.8092058137, 2.18880632692], "nb_pl_total": 82, "localisation": "AVENUE ROGER SALENGRO", "type_parking": "Ouvrage", "code_insee": "92022", "nom_parking": "Parking Centre-Ville"}},{"type": "Feature", "geometry": {"type": "Point", "coordinates": [2.224738632716125, 48.826773680317324]}, "properties": {"num_loc": "2", "commune": "SEVRES", "type_zone": "Tarification parking", "gestionnaire": "Seine Ouest Am\u00e9nagement", "type_gestion": "Payant sous barri\u00e8re", "geo_point_2d": [48.8267736803, 2.22473863272], "nb_pl_total": 108, "localisation": "RUE TROYON", "type_parking": "Ouvrage", "code_insee": "92072", "nom_parking": "Parking Troyon"}},{"type": "Feature", "geometry": {"type": "Point", "coordinates": [2.25752903966598, 48.83379138305917]}, "properties": {"nom_parking": "Parking Point du Jour", "commune": "BOULOGNE-BILLANCOURT", "type_zone": "Tarification parking", "gestionnaire": "Indigo", "type_gestion": "Payant sous barri\u00e8re", "geo_point_2d": [48.8337913831, 2.25752903967], "nb_pl_total": 525, "localisation": "PLACE ABEL GANCE", "type_parking": "Ouvrage", "code_insee": "92012", "id_parking": "PARK006"}},{"type": "Feature", "geometry": {"type": "Point", "coordinates": [2.18220595368214, 48.82215524441298]}, "properties": {"nom_parking": "Parking Rue de Versailles", "localisation": "RUE DE VERSAILLES", "commune": "VILLE D'AVRAY", "type_gestion": "Gratuit", "geo_point_2d": [48.8221552444, 2.18220595368], "gestionnaire": "Autre personne publique", "type_parking": "Surface", "code_insee": "92077", "id_parking": "PARK009"}},{"type": "Feature", "geometry": {"type": "Point", "coordinates": [2.240123378040099, 48.8310521695952]}, "properties": {"num_loc": "12-14", "commune": "BOULOGNE-BILLANCOURT", "type_zone": "Tarification parking", "gestionnaire": "Indigo", "type_gestion": "Payant sous barri\u00e8re", "geo_point_2d": [48.8310521696, 2.24012337804], "nb_pl_total": 98, "localisation": "RUE HEYRAULT", "type_parking": "Ouvrage", "code_insee": "92012", "nom_parking": "Parking Heyrault (abonn\u00e9s)", "id_parking": "PARK010"}},{"type": "Feature", "geometry": {"type": "Point", "coordinates": [2.199988153854626, 48.82614994889407]}, "properties": {"nom_parking": "Riocreux", "commune": "SEVRES", "comp_loc": "Angle rue de S\u00e8vres", "type_zone": "Zone longue dur\u00e9e", "gestionnaire": "Q-Park", "type_gestion": "Payant par horodateur", "geo_point_2d": [48.8261499489, 2.19998815385], "nb_pl_total": 17, "localisation": "RUE RIOCREUX", "type_parking": "Surface", "code_insee": "92072", "id_parking": "PARK014"}},{"type": "Feature", "geometry": {"type": "Point", "coordinates": [2.237248467079563, 48.80734832896479]}, "properties": {"nom_parking": "Baudreuil", "commune": "MEUDON", "comp_loc": "Angle rue de l'Eglise", "type_zone": "Zone courte dur\u00e9e", "gestionnaire": "Indigo", "type_gestion": "Payant par horodateur", "geo_point_2d": [48.807348329, 2.23724846708], "nb_pl_total": 24, "localisation": "RUE DE BAUDREUIL", "type_parking": "Surface", "code_insee": "92048", "id_parking": "PARK016"}},{"type": "Feature", "geometry": {"type": "Point", "coordinates": [2.187752721627676, 48.81258596747153]}, "properties": {"nom_parking": "Parking Carnot", "num_loc": "34", "comp_loc": "Gare de Chaville-Rive droite", "type_zone": "Zone longue dur\u00e9e", "commune": "CHAVILLE", "gestionnaire": "GPSO", "type_gestion": "Payant par horodateur", "geo_point_2d": [48.8125859675, 2.18775272163], "nb_pl_total": 49, "localisation": "RUE CARNOT", "type_parking": "Surface", "code_insee": "92022", "id_parking": "PARK020"}},{"type": "Feature", "geometry": {"type": "Point", "coordinates": [2.218555841169894, 48.8259772766063]}, "properties": {"num_loc": "39-41", "commune": "SEVRES", "type_zone": "Tarification parking", "gestionnaire": "Q-Park", "type_gestion": "Payant sous barri\u00e8re", "geo_point_2d": [48.8259772766, 2.21855584117], "nb_pl_total": 118, "localisation": "GRANDE RUE", "type_parking": "Ouvrage", "code_insee": "92072", "nom_parking": "Cent Gardes", "id_parking": "PARK022"}},{"type": "Feature", "geometry": {"type": "Point", "coordinates": [2.236781968323193, 48.82467187814477]}, "properties": {"num_loc": "38", "commune": "BOULOGNE-BILLANCOURT", "type_zone": "Tarification parking", "gestionnaire": "Indigo", "type_gestion": "Payant sous barri\u00e8re", "geo_point_2d": [48.8246718781, 2.23678196832], "nb_pl_total": 595, "localisation": "QUAI GEORGES GORSE", "type_parking": "Ouvrage", "code_insee": "92012", "nom_parking": "Parking Rives de Seine", "id_parking": "PARK030"}},{"type": "Feature", "geometry": {"type": "Point", "coordinates": [2.241123985875528, 48.83555625883527]}, "properties": {"nom_parking": "Parking H\u00f4tel de Ville / Mairie", "commune": "BOULOGNE-BILLANCOURT", "comp_loc": "Mairie de Boulogne-BIllancourt", "type_zone": "Tarification parking", "gestionnaire": "Q-Park", "rep_loc": "BIS", "num_loc": "24", "type_gestion": "Payant sous barri\u00e8re", "geo_point_2d": [48.8355562588, 2.24112398588], "nb_pl_total": 584, "localisation": "AVENUE ANDRE MORIZET", "type_parking": "Ouvrage", "code_insee": "92012", "id_parking": "PARK032"}},{"type": "Feature", "geometry": {"type": "Point", "coordinates": [2.173727763228642, 48.82112030753845]}, "properties": {"nom_parking": "Parking For\u00eat de Fausses-Reposes", "localisation": "ROUTE DES CERISIERS", "commune": "VILLE D'AVRAY", "type_gestion": "Gratuit", "geo_point_2d": [48.8211203075, 2.17372776323], "gestionnaire": "Autre personne publique", "type_parking": "Surface", "code_insee": "92077", "id_parking": "PARK034"}},{"type": "Feature", "geometry": {"type": "Point", "coordinates": [2.18854011321703, 48.79854095235459]}, "properties": {"nom_parking": "Parking Jean Jaur\u00e8s", "commune": "CHAVILLE", "comp_loc": "Face au 6", "localisation": "RUE JEAN JAURES", "type_gestion": "Gratuit", "geo_point_2d": [48.7985409524, 2.18854011322], "nb_pl_total": 15, "gestionnaire": "GPSO", "type_parking": "Surface", "code_insee": "92022", "id_parking": "PARK039"}},{"type": "Feature", "geometry": {"type": "Point", "coordinates": [2.19169094364685, 48.81674139997921]}, "properties": {"nom_parking": "Parking Mortes Fontaines", "commune": "CHAVILLE", "comp_loc": "Face au 2", "localisation": "RUE DES MORTES FONTAINES", "type_gestion": "Gratuit", "geo_point_2d": [48.8167414, 2.19169094365], "nb_pl_total": 8, "gestionnaire": "GPSO", "type_parking": "Surface", "code_insee": "92022", "id_parking": "PARK040"}},{"type": "Feature", "geometry": {"type": "Point", "coordinates": [2.229714888665961, 48.82342178118345]}, "properties": {"nom_parking": "Troyon", "num_loc": "40", "type_zone": "Zone moyenne dur\u00e9e", "commune": "SEVRES", "type_gestion": "Payant par horodateur", "geo_point_2d": [48.8234217812, 2.22971488867], "gestionnaire": "Q-Park", "localisation": "RUE TROYON", "type_parking": "Surface", "code_insee": "92072"}},{"type": "Feature", "geometry": {"type": "Point", "coordinates": [2.228719472470401, 48.787374639917715]}, "properties": {"nom_parking": "Parking de la Place Centrale", "commune": "MEUDON", "type_zone": "Tarification parking", "gestionnaire": "Indigo", "type_gestion": "Payant sous barri\u00e8re", "geo_point_2d": [48.7873746399, 2.22871947247], "nb_pl_total": 106, "localisation": "RUE BERNARD DELPUECH", "type_parking": "Ouvrage", "code_insee": "92048", "id_parking": "PARK042"}},{"type": "Feature", "geometry": {"type": "Point", "coordinates": [2.227685483686508, 48.821368521665526]}, "properties": {"nom_parking": "Bellevue", "commune": "MEUDON", "type_zone": "Zone moyenne dur\u00e9e", "gestionnaire": "Indigo", "type_gestion": "Payant par horodateur", "geo_point_2d": [48.8213685217, 2.22768548369], "nb_pl_total": 18, "localisation": "RUE MARCEL ALLEGOT", "type_parking": "Surface", "code_insee": "92048", "id_parking": "PARK043"}},{"type": "Feature", "geometry": {"type": "Point", "coordinates": [2.186619447334129, 48.80577255425971]}, "properties": {"nom_parking": "Parking Le Muguet", "commune": "CHAVILLE", "comp_loc": "Face au 11", "localisation": "RUE DU COLONEL MARCHAND", "type_gestion": "Gratuit", "geo_point_2d": [48.8057725543, 2.18661944733], "nb_pl_total": 10, "gestionnaire": "GPSO", "type_parking": "Surface", "code_insee": "92022", "id_parking": "PARK048"}},{"type": "Feature", "geometry": {"type": "Point", "coordinates": [2.23637661338666, 48.84652863048035]}, "properties": {"num_loc": "7", "commune": "BOULOGNE-BILLANCOURT", "type_zone": "Tarification parking", "rep_loc": "TER", "gestionnaire": "Q-Park", "type_gestion": "Payant sous barri\u00e8re", "geo_point_2d": [48.8465286305, 2.23637661339], "nb_pl_total": 300, "localisation": "RUE DU PARCHAMP", "type_parking": "Ouvrage", "code_insee": "92012", "nom_parking": "Parking Parchamp", "id_parking": "PARK001"}},{"type": "Feature", "geometry": {"type": "Point", "coordinates": [2.265139184123953, 48.830676037370985]}, "properties": {"num_loc": "56", "commune": "ISSY-LES-MOULINEAUX", "type_zone": "Tarification parking", "gestionnaire": "Autre personne publique", "type_gestion": "Payant sous barri\u00e8re", "geo_point_2d": [48.8306760374, 2.26513918412], "nb_pl_total": 176, "localisation": "RUE CAMILLE DESMOULINS", "type_parking": "Ouvrage", "code_insee": "92040", "nom_parking": "Parking Camille Desmoulins", "id_parking": "PARK050"}},{"type": "Feature", "geometry": {"type": "Point", "coordinates": [2.25882807067494, 48.82514921065835]}, "properties": {"num_loc": "169", "commune": "ISSY-LES-MOULINEAUX", "type_zone": "Tarification parking", "gestionnaire": "Autre personne publique", "type_gestion": "Payant sous barri\u00e8re", "geo_point_2d": [48.8251492107, 2.25882807067], "nb_pl_total": 220, "localisation": "QUAI DE STALINGRAD", "type_parking": "Ouvrage", "code_insee": "92040", "nom_parking": "Parking \u00cele Saint Germain", "id_parking": "PARK051"}},{"type": "Feature", "geometry": {"type": "Point", "coordinates": [2.229139839400767, 48.83090348738345]}, "properties": {"nom_parking": "Parking Pont de S\u00e8vres", "num_loc": "82", "comp_loc": "Quai Alphonse Le Gallo", "type_zone": "Tarification parking", "commune": "BOULOGNE-BILLANCOURT", "gestionnaire": "Autre personne publique", "type_gestion": "Payant sous barri\u00e8re", "geo_point_2d": [48.8309034874, 2.2291398394], "nb_pl_total": 600, "localisation": "RUE DE SEVRES", "type_parking": "Ouvrage", "code_insee": "92012", "id_parking": "PARK017"}},{"type": "Feature", "geometry": {"type": "Point", "coordinates": [2.289696238018494, 48.81853358246634]}, "properties": {"num_loc": "16", "commune": "VANVES", "type_zone": "Tarification parking", "gestionnaire": "Seine Ouest Am\u00e9nagement", "type_gestion": "Payant sous barri\u00e8re", "geo_point_2d": [48.8185335825, 2.28969623802], "nb_pl_total": 46, "localisation": "RUE RENE COCHE", "type_parking": "Ouvrage", "code_insee": "92075", "nom_parking": "Parking Niwa"}}]}